{
  "type" : "FeatureCollection",
  "features" : [{"type":"Feature","id":1,"geometry":{"type":"Point","coordinates":[35.190089963000048,32.083575345000042]},"properties":{"OBJECTID":1,"OBJECTID_1":1,"Name":"BluElephant","Location":"Salfit"}},{"type":"Feature","id":2,"geometry":{"type":"Point","coordinates":[35.177066527000079,32.081998923000071]},"properties":{"OBJECTID":2,"OBJECTID_1":2,"Name":"Salfeet Municipality","Location":"Salfit"}},{"type":"Feature","id":3,"geometry":{"type":"Point","coordinates":[35.220192054000051,32.100993051000046]},"properties":{"OBJECTID":3,"OBJECTID_1":4,"Name":"Data collection for Iskaka village\n","Location":"salfit"}},{"type":"Feature","id":4,"geometry":{"type":"Point","coordinates":[35.150874399000031,32.070319763000043]},"properties":{"OBJECTID":4,"OBJECTID_1":5,"Name":"Data collection for Farkha village","Location":"Salfit"}},{"type":"Feature","id":5,"geometry":{"type":"Point","coordinates":[35.167210538000063,32.091214089000061]},"properties":{"OBJECTID":5,"OBJECTID_1":6,"Name":"Flowless","Location":"Salfit"}},{"type":"Feature","id":6,"geometry":{"type":"Point","coordinates":[35.12767315900004,32.077905611000062]},"properties":{"OBJECTID":6,"OBJECTID_1":7,"Name":"Purification station - Lab support","Location":"Salfit"}}]
}